[
    { "_id": { "$oid": "poi_001" }, "name": "COEX", "address": "513, Yeongdong-daero, Gangnam-gu, Seoul", "location": { "type": "Point", "coordinates": [127.0589, 37.5113] }, "categoryTags": ["Kpop", "Kfood", "Shopping"], "openingHours": "10:30 - 22:00", "entryFee": "Free", "needsReservation": false },
    { "_id": { "$oid": "poi_002" }, "name": "Myeongdong Street", "address": "Myeong-dong, Jung-gu, Seoul", "location": { "type": "Point", "coordinates": [126.9858, 37.5594] }, "categoryTags": ["Kbeauty", "Kfood"], "openingHours": "11:00 - 23:00", "entryFee": "Free", "needsReservation": false },
    { "_id": { "$oid": "poi_003" }, "name": "HYBE Insight", "address": "42, Hangang-daero, Yongsan-gu, Seoul", "location": { "type": "Point", "coordinates": [126.9672, 37.5234] }, "categoryTags": ["Kpop"], "openingHours": "11:00 - 19:00", "entryFee": "22,000 KRW", "needsReservation": true },
    { "_id": { "$oid": "poi_004" }, "name": "Gwangjang Market", "address": "88, Changgyeonggung-ro, Jongno-gu, Seoul", "location": { "type": "Point", "coordinates": [127.0016, 37.5701] }, "categoryTags": ["Kfood"], "openingHours": "09:00 - 22:00", "entryFee": "Free", "needsReservation": false },
    { "_id": { "$oid": "poi_005" }, "name": "Olive Young Flagship", "address": "53, Myeongdong-gil, Jung-gu, Seoul", "location": { "type": "Point", "coordinates": [126.9850, 37.5645] }, "categoryTags": ["Kbeauty"], "openingHours": "10:00 - 22:30", "entryFee": "Free", "needsReservation": false },
    { "_id": { "$oid": "poi_006" }, "name": "Lotte World Tower", "address": "300, Olympic-ro, Songpa-gu, Seoul", "location": { "type": "Point", "coordinates": [127.1025, 37.5125] }, "categoryTags": ["Kpop", "Kfood"], "openingHours": "10:30 - 22:00", "entryFee": "27,000 KRW", "needsReservation": false },
    { "_id": { "$oid": "poi_007" }, "name": "Bukchon Hanok Village", "address": "Gye-dong, Jongno-gu, Seoul", "location": { "type": "Point", "coordinates": [126.9848, 37.5829] }, "categoryTags": ["Kculture", "Kfood"], "openingHours": "10:00 - 17:00", "entryFee": "Free", "needsReservation": false },
    { "_id": { "$oid": "poi_008" }, "name": "Banpo Hangang Park", "address": "40, Sinbanpo-ro 11-gil, Seocho-gu, Seoul", "location": { "type": "Point", "coordinates": [127.0010, 37.5100] }, "categoryTags": ["Kfood", "Kfestival"], "openingHours": "24h", "entryFee": "Free", "needsReservation": false },
    { "_id": { "$oid": "poi_009" }, "name": "DDP (Dongdaemun)", "address": "281, Eulji-ro, Jung-gu, Seoul", "location": { "type": "Point", "coordinates": [127.0098, 37.5665] }, "categoryTags": ["Kbeauty", "Kfestival"], "openingHours": "10:00 - 21:00", "entryFee": "Free", "needsReservation": false },
    { "_id": { "$oid": "poi_010" }, "name": "KWANGYA@SEOUL", "address": "83-21, Wangsimni-ro, Seongdong-gu, Seoul", "location": { "type": "Point", "coordinates": [127.0440, 37.5443] }, "categoryTags": ["Kpop"], "openingHours": "10:30 - 20:00", "entryFee": "Free", "needsReservation": false },
    { "_id": { "$oid": "poi_011" }, "name": "Seongsu-dong Cafe Street", "address": "Seongsu-dong, Seongdong-gu, Seoul", "location": { "type": "Point", "coordinates": [127.0557, 37.5445] }, "categoryTags": ["Kbeauty", "Kfood"], "openingHours": "11:00 - 22:00", "entryFee": "Free", "needsReservation": false },
    { "_id": { "$oid": "poi_012" }, "name": "Hongdae Walking Street", "address": "Eoulmadang-ro, Mapo-gu, Seoul", "location": { "type": "Point", "coordinates": [126.9213, 37.5552] }, "categoryTags": ["Kpop", "Kfood"], "openingHours": "24h", "entryFee": "Free", "needsReservation": false },
    { "_id": { "$oid": "poi_013" }, "name": "Gyeongbokgung Palace", "address": "161, Sajik-ro, Jongno-gu, Seoul", "location": { "type": "Point", "coordinates": [126.9768, 37.5796] }, "categoryTags": ["Kculture", "Kfestival"], "openingHours": "09:00 - 18:00", "entryFee": "3,000 KRW", "needsReservation": false },
    { "_id": { "$oid": "poi_014" }, "name": "Hannam-dong Art District", "address": "Hannam-dong, Yongsan-gu, Seoul", "location": { "type": "Point", "coordinates": [127.0021, 37.5365] }, "categoryTags": ["Kbeauty", "Kfood"], "openingHours": "11:00 - 21:00", "entryFee": "Free", "needsReservation": false },
    { "_id": { "$oid": "poi_015" }, "name": "Olympic Park", "address": "424, Olympic-ro, Songpa-gu, Seoul", "location": { "type": "Point", "coordinates": [127.1251, 37.5208] }, "categoryTags": ["Kpop", "Kfestival"], "openingHours": "05:00 - 22:00", "entryFee": "Free", "needsReservation": false },
    { "_id": { "$oid": "poi_016" }, "name": "Insa-dong Culture Street", "address": "Insa-dong, Jongno-gu, Seoul", "location": { "type": "Point", "coordinates": [126.9865, 37.5732] }, "categoryTags": ["Kculture", "Kfood"], "openingHours": "10:00 - 21:00", "entryFee": "Free", "needsReservation": false },
    { "_id": { "$oid": "poi_017" }, "name": "Starfield Library", "address": "513, Yeongdong-daero, Gangnam-gu, Seoul", "location": { "type": "Point", "coordinates": [127.0595, 37.5126] }, "categoryTags": ["Kculture", "Kpop"], "openingHours": "10:30 - 22:00", "entryFee": "Free", "needsReservation": false },
    { "_id": { "$oid": "poi_018" }, "name": "Blue House (Cheong Wa Dae)", "address": "1, Cheongwadae-ro, Jongno-gu, Seoul", "location": { "type": "Point", "coordinates": [126.9748, 37.5866] }, "categoryTags": ["Kculture"], "openingHours": "09:00 - 18:00", "entryFee": "Free", "needsReservation": true },
    { "_id": { "$oid": "poi_019" }, "name": "Namsan Seoul Tower", "address": "105, Namsangongwon-gil, Yongsan-gu, Seoul", "location": { "type": "Point", "coordinates": [126.9882, 37.5512] }, "categoryTags": ["Kculture", "Kfood"], "openingHours": "10:00 - 23:00", "entryFee": "21,000 KRW", "needsReservation": false },
    { "_id": { "$oid": "poi_020" }, "name": "Yeouido Hangang Park", "address": "330, Yeouidong-ro, Yeongdeungpo-gu, Seoul", "location": { "type": "Point", "coordinates": [126.9347, 37.5284] }, "categoryTags": ["Kfestival", "Kfood"], "openingHours": "24h", "entryFee": "Free", "needsReservation": false },
    { "_id": { "$oid": "poi_021" }, "name": "AmorePacific Headquarters", "address": "100, Hangang-daero, Yongsan-gu, Seoul", "location": { "type": "Point", "coordinates": [126.9685, 37.5281] }, "categoryTags": ["Kbeauty"], "openingHours": "10:00 - 18:00", "entryFee": "Free", "needsReservation": false },
    { "_id": { "$oid": "poi_022" }, "name": "JYP Entertainment", "address": "205, Gangdong-daero, Gangdong-gu, Seoul", "location": { "type": "Point", "coordinates": [127.1351, 37.5221] }, "categoryTags": ["Kpop"], "openingHours": "Exterior only", "entryFee": "Free", "needsReservation": false },
    { "_id": { "$oid": "poi_023" }, "name": "YG Entertainment", "address": "3, Huiujeong-ro 1-gil, Mapo-gu, Seoul", "location": { "type": "Point", "coordinates": [126.9137, 37.5482] }, "categoryTags": ["Kpop"], "openingHours": "Exterior only", "entryFee": "Free", "needsReservation": false },
    { "_id": { "$oid": "poi_024" }, "name": "Tamburins Flagship Store", "address": "44, Apgujeong-ro 10-gil, Gangnam-gu, Seoul", "location": { "type": "Point", "coordinates": [127.0234, 37.5218] }, "categoryTags": ["Kbeauty"], "openingHours": "11:00 - 21:00", "entryFee": "Free", "needsReservation": false },
    { "_id": { "$oid": "poi_025" }, "name": "Gyeongui Line Forest Park", "address": "Mapo-gu, Seoul", "location": { "type": "Point", "coordinates": [126.9365, 37.5574] }, "categoryTags": ["Kfood", "Kculture"], "openingHours": "24h", "entryFee": "Free", "needsReservation": false },
    { "_id": { "$oid": "poi_026" }, "name": "Seoul Forest", "address": "273, Ttukseom-ro, Seongdong-gu, Seoul", "location": { "type": "Point", "coordinates": [127.0418, 37.5444] }, "categoryTags": ["Kculture", "Kpop"], "openingHours": "24h", "entryFee": "Free", "needsReservation": false },
    { "_id": { "$oid": "poi_027" }, "name": "Ttukseom Hangang Park", "address": "139, Gangbyeonbuk-ro, Gwangjin-gu, Seoul", "location": { "type": "Point", "coordinates": [127.0664, 37.5287] }, "categoryTags": ["Kfestival", "Kfood"], "openingHours": "24h", "entryFee": "Free", "needsReservation": false },
    { "_id": { "$oid": "poi_028" }, "name": "Ikseon-dong Hanok Street", "address": "Ikseon-dong, Jongno-gu, Seoul", "location": { "type": "Point", "coordinates": [126.9891, 37.5744] }, "categoryTags": ["Kfood", "Kculture"], "openingHours": "11:00 - 22:00", "entryFee": "Free", "needsReservation": false },
    { "_id": { "$oid": "poi_029" }, "name": "Sinsa-dong Garosu-gil", "address": "Sinsa-dong, Gangnam-gu, Seoul", "location": { "type": "Point", "coordinates": [127.0232, 37.5203] }, "categoryTags": ["Kbeauty", "Kfood"], "openingHours": "10:30 - 22:00", "entryFee": "Free", "needsReservation": false },
    { "_id": { "$oid": "poi_030" }, "name": "Namdaemun Market", "address": "21, Namdaemunsichang-gil, Jung-gu, Seoul", "location": { "type": "Point", "coordinates": [126.9772, 37.5592] }, "categoryTags": ["Kfood", "Shopping"], "openingHours": "09:00 - 18:00", "entryFee": "Free", "needsReservation": false },
    { "_id": { "$oid": "poi_031" }, "name": "BIFF Square", "address": "58-1, Gudeok-ro, Jung-gu, Busan", "location": { "type": "Point", "coordinates": [129.0275, 35.0979] }, "categoryTags": ["Kfestival", "Kculture"], "openingHours": "24h", "entryFee": "Free", "needsReservation": false },
    { "_id": { "$oid": "poi_032" }, "name": "SM Entertainment Building", "address": "648, Samseong-ro, Gangnam-gu, Seoul", "location": { "type": "Point", "coordinates": [127.0474, 37.5175] }, "categoryTags": ["Kpop"], "openingHours": "10:00 - 20:00", "entryFee": "Free", "needsReservation": false },
    { "_id": { "$oid": "poi_033" }, "name": "K-Star Road", "address": "Apgujeong-ro, Gangnam-gu, Seoul", "location": { "type": "Point", "coordinates": [127.0275, 37.5234] }, "categoryTags": ["Kpop"], "openingHours": "24h", "entryFee": "Free", "needsReservation": false },
    { "_id": { "$oid": "poi_034" }, "name": "Itaewon Street", "address": "Itaewon-ro, Yongsan-gu, Seoul", "location": { "type": "Point", "coordinates": [126.9942, 37.5347] }, "categoryTags": ["Kfood", "Kculture"], "openingHours": "11:00 - 02:00", "entryFee": "Free", "needsReservation": false },
    { "_id": { "$oid": "poi_035" }, "name": "Haeundae Beach", "address": "264, Haeundaehaebyeon-ro, Haeundae-gu, Busan", "location": { "type": "Point", "coordinates": [129.1655, 35.1587] }, "categoryTags": ["Kfestival", "Kculture"], "openingHours": "24h", "entryFee": "Free", "needsReservation": false },
    { "_id": { "$oid": "poi_036" }, "name": "Gamcheon Culture Village", "address": "200, Gamnae 2-ro, Saha-gu, Busan", "location": { "type": "Point", "coordinates": [129.0069, 35.0976] }, "categoryTags": ["Kculture", "Kfood"], "openingHours": "09:00 - 18:00", "entryFee": "Free", "needsReservation": false },
    { "_id": { "$oid": "poi_037" }, "name": "Jagalchi Market", "address": "52, Jagalchihaean-ro, Jung-gu, Busan", "location": { "type": "Point", "coordinates": [129.0257, 35.0978] }, "categoryTags": ["Kfood"], "openingHours": "05:00 - 22:00", "entryFee": "Free", "needsReservation": false },
    { "_id": { "$oid": "poi_038" }, "name": "Haedong Yonggungsa Temple", "address": "86, Yonggung-gil, Gijang-gun, Busan", "location": { "type": "Point", "coordinates": [129.2286, 35.1888] }, "categoryTags": ["Kculture", "Kfestival"], "openingHours": "05:00 - 19:00", "entryFee": "Free", "needsReservation": false },
    { "_id": { "$oid": "poi_039" }, "name": "Cheonggyecheon Stream", "address": "Jung-gu, Seoul", "location": { "type": "Point", "coordinates": [126.9786, 37.5694] }, "categoryTags": ["Kculture", "Kfestival"], "openingHours": "24h", "entryFee": "Free", "needsReservation": false },
    { "_id": { "$oid": "poi_040" }, "name": "Changdeokgung Palace", "address": "99, Yulgok-ro, Jongno-gu, Seoul", "location": { "type": "Point", "coordinates": [126.9910, 37.5795] }, "categoryTags": ["Kculture", "Kfestival"], "openingHours": "09:00 - 18:00", "entryFee": "5,000 KRW", "needsReservation": false },
    { "_id": { "$oid": "poi_041" }, "name": "Myeongdong Cathedral", "address": "74, Myeongdong-gil, Jung-gu, Seoul", "location": { "type": "Point", "coordinates": [126.9877, 37.5640] }, "categoryTags": ["Kculture"], "openingHours": "06:30 - 20:00", "entryFee": "Free", "needsReservation": false },
    { "_id": { "$oid": "poi_042" }, "name": "Seoul City Hall", "address": "110, Sejong-daero, Jung-gu, Seoul", "location": { "type": "Point", "coordinates": [126.9788, 37.5663] }, "categoryTags": ["Kculture", "Kfestival"], "openingHours": "09:00 - 18:00", "entryFee": "Free", "needsReservation": false },
    { "_id": { "$oid": "poi_043" }, "name": "Leeum Samsung Museum", "address": "60-16, Itaewon-ro 55-gil, Yongsan-gu, Seoul", "location": { "type": "Point", "coordinates": [126.9945, 37.5380] }, "categoryTags": ["Kculture"], "openingHours": "10:30 - 18:00", "entryFee": "10,000 KRW", "needsReservation": false },
    { "_id": { "$oid": "poi_044" }, "name": "Gangnam Station Area", "address": "Gangnam-daero, Seocho-gu, Seoul", "location": { "type": "Point", "coordinates": [127.0276, 37.4979] }, "categoryTags": ["Kpop", "Kfood", "Shopping"], "openingHours": "10:00 - 23:00", "entryFee": "Free", "needsReservation": false },
    { "_id": { "$oid": "poi_045" }, "name": "Apgujeong Rodeo Street", "address": "Apgujeong-ro, Gangnam-gu, Seoul", "location": { "type": "Point", "coordinates": [127.0294, 37.5274] }, "categoryTags": ["Kbeauty", "Shopping"], "openingHours": "10:00 - 22:00", "entryFee": "Free", "needsReservation": false },
    { "_id": { "$oid": "poi_046" }, "name": "Lotte Department Store Main", "address": "201, Sogong-ro, Jung-gu, Seoul", "location": { "type": "Point", "coordinates": [126.9810, 37.5644] }, "categoryTags": ["Kbeauty", "Shopping", "Kfood"], "openingHours": "10:30 - 20:00", "entryFee": "Free", "needsReservation": false },
    { "_id": { "$oid": "poi_047" }, "name": "Shinsegae Department Store", "address": "63, Sogong-ro, Jung-gu, Seoul", "location": { "type": "Point", "coordinates": [126.9800, 37.5605] }, "categoryTags": ["Kbeauty", "Shopping"], "openingHours": "10:30 - 20:00", "entryFee": "Free", "needsReservation": false },
    { "_id": { "$oid": "poi_048" }, "name": "Dongdaemun Design Plaza", "address": "281, Eulji-ro, Jung-gu, Seoul", "location": { "type": "Point", "coordinates": [127.0098, 37.5665] }, "categoryTags": ["Kculture", "Kfestival", "Kbeauty"], "openingHours": "10:00 - 21:00", "entryFee": "Free", "needsReservation": false },
    { "_id": { "$oid": "poi_049" }, "name": "Seoul N Tower Observatory", "address": "105, Namsangongwon-gil, Yongsan-gu, Seoul", "location": { "type": "Point", "coordinates": [126.9882, 37.5512] }, "categoryTags": ["Kculture", "Kfood"], "openingHours": "10:00 - 23:00", "entryFee": "21,000 KRW", "needsReservation": false },
    { "_id": { "$oid": "poi_050" }, "name": "Jogyesa Temple", "address": "55, Ujeongguk-ro, Jongno-gu, Seoul", "location": { "type": "Point", "coordinates": [126.9823, 37.5745] }, "categoryTags": ["Kculture", "Kfestival"], "openingHours": "05:00 - 22:00", "entryFee": "Free", "needsReservation": false },
    { "_id": { "$oid": "poi_051" }, "name": "War Memorial of Korea", "address": "29, Itaewon-ro, Yongsan-gu, Seoul", "location": { "type": "Point", "coordinates": [126.9773, 37.5362] }, "categoryTags": ["Kculture"], "openingHours": "09:00 - 18:00", "entryFee": "Free", "needsReservation": false },
    { "_id": { "$oid": "poi_052" }, "name": "Bukhansan National Park", "address": "262, Bogukmun-ro, Seongbuk-gu, Seoul", "location": { "type": "Point", "coordinates": [126.9995, 37.6585] }, "categoryTags": ["Kculture"], "openingHours": "04:00 - 17:00", "entryFee": "Free", "needsReservation": false },
    { "_id": { "$oid": "poi_053" }, "name": "Haneul Park", "address": "487-6, Sangam-dong, Mapo-gu, Seoul", "location": { "type": "Point", "coordinates": [126.8830, 37.5705] }, "categoryTags": ["Kculture", "Kfestival"], "openingHours": "05:00 - 22:00", "entryFee": "Free", "needsReservation": false },
    { "_id": { "$oid": "poi_054" }, "name": "World Cup Stadium", "address": "240, World Cup-ro, Mapo-gu, Seoul", "location": { "type": "Point", "coordinates": [126.8960, 37.5683] }, "categoryTags": ["Kpop", "Kfestival"], "openingHours": "09:00 - 18:00", "entryFee": "Varies", "needsReservation": true },
    { "_id": { "$oid": "poi_055" }, "name": "Hongik University Area", "address": "Hongdae Street, Mapo-gu, Seoul", "location": { "type": "Point", "coordinates": [126.9236, 37.5565] }, "categoryTags": ["Kpop", "Kfood"], "openingHours": "24h", "entryFee": "Free", "needsReservation": false },
    { "_id": { "$oid": "poi_056" }, "name": "Ewha Womans University", "address": "52, Ewhayeodae-gil, Seodaemun-gu, Seoul", "location": { "type": "Point", "coordinates": [126.9454, 37.5624] }, "categoryTags": ["Kculture", "Shopping"], "openingHours": "09:00 - 18:00", "entryFee": "Free", "needsReservation": false },
    { "_id": { "$oid": "poi_057" }, "name": "Seodaemun Prison History Hall", "address": "251, Tongil-ro, Seodaemun-gu, Seoul", "location": { "type": "Point", "coordinates": [126.9534, 37.5744] }, "categoryTags": ["Kculture"], "openingHours": "09:30 - 18:00", "entryFee": "3,000 KRW", "needsReservation": false },
    { "_id": { "$oid": "poi_058" }, "name": "Gwanghwamun Square", "address": "172, Sejong-daero, Jongno-gu, Seoul", "location": { "type": "Point", "coordinates": [126.9769, 37.5755] }, "categoryTags": ["Kculture", "Kfestival"], "openingHours": "24h", "entryFee": "Free", "needsReservation": false },
    { "_id": { "$oid": "poi_059" }, "name": "Seoul Museum of History", "address": "55, Saemunan-ro, Jongno-gu, Seoul", "location": { "type": "Point", "coordinates": [126.9701, 37.5666] }, "categoryTags": ["Kculture"], "openingHours": "09:00 - 18:00", "entryFee": "Free", "needsReservation": false },
    { "_id": { "$oid": "poi_060" }, "name": "N Seoul Tower Love Locks", "address": "105, Namsangongwon-gil, Yongsan-gu, Seoul", "location": { "type": "Point", "coordinates": [126.9882, 37.5512] }, "categoryTags": ["Kculture"], "openingHours": "10:00 - 23:00", "entryFee": "21,000 KRW", "needsReservation": false },
    { "_id": { "$oid": "poi_061" }, "name": "Tongin Market", "address": "18, Jahamun-ro 15-gil, Jongno-gu, Seoul", "location": { "type": "Point", "coordinates": [126.9708, 37.5786] }, "categoryTags": ["Kfood"], "openingHours": "07:00 - 21:00", "entryFee": "Free", "needsReservation": false },
    { "_id": { "$oid": "poi_062" }, "name": "Noryangjin Fish Market", "address": "674, Nodeul-ro, Dongjak-gu, Seoul", "location": { "type": "Point", "coordinates": [126.9408, 37.5139] }, "categoryTags": ["Kfood"], "openingHours": "24h", "entryFee": "Free", "needsReservation": false },
    { "_id": { "$oid": "poi_063" }, "name": "Mangwon Market", "address": "14, Mangwon-ro, Mapo-gu, Seoul", "location": { "type": "Point", "coordinates": [126.9101, 37.5564] }, "categoryTags": ["Kfood"], "openingHours": "09:00 - 22:00", "entryFee": "Free", "needsReservation": false },
    { "_id": { "$oid": "poi_064" }, "name": "Seongsu-dong Station Area", "address": "Seongsu-dong, Seongdong-gu, Seoul", "location": { "type": "Point", "coordinates": [127.0475, 37.5449] }, "categoryTags": ["Kbeauty", "Kfood"], "openingHours": "10:00 - 22:00", "entryFee": "Free", "needsReservation": false },
    { "_id": { "$oid": "poi_065" }, "name": "Yeonnam-dong", "address": "Yeonnam-dong, Mapo-gu, Seoul", "location": { "type": "Point", "coordinates": [126.9228, 37.5636] }, "categoryTags": ["Kfood", "Kculture"], "openingHours": "11:00 - 23:00", "entryFee": "Free", "needsReservation": false },
    { "_id": { "$oid": "poi_066" }, "name": "Mangwon Hangang Park", "address": "Mangwon-dong, Mapo-gu, Seoul", "location": { "type": "Point", "coordinates": [126.9018, 37.5512] }, "categoryTags": ["Kfood", "Kfestival"], "openingHours": "24h", "entryFee": "Free", "needsReservation": false },
    { "_id": { "$oid": "poi_067" }, "name": "Gangnam Underground Shopping Center", "address": "Gangnam Station, Seocho-gu, Seoul", "location": { "type": "Point", "coordinates": [127.0276, 37.4979] }, "categoryTags": ["Kbeauty", "Shopping"], "openingHours": "10:00 - 22:00", "entryFee": "Free", "needsReservation": false },
    { "_id": { "$oid": "poi_068" }, "name": "Express Bus Terminal Underground", "address": "Banpo-dong, Seocho-gu, Seoul", "location": { "type": "Point", "coordinates": [127.0052, 37.5050] }, "categoryTags": ["Kbeauty", "Shopping"], "openingHours": "10:00 - 22:00", "entryFee": "Free", "needsReservation": false },
    { "_id": { "$oid": "poi_069" }, "name": "Goto Mall", "address": "Gangnam-daero, Seocho-gu, Seoul", "location": { "type": "Point", "coordinates": [127.0276, 37.4979] }, "categoryTags": ["Kbeauty", "Shopping"], "openingHours": "10:00 - 22:00", "entryFee": "Free", "needsReservation": false },
    { "_id": { "$oid": "poi_070" }, "name": "Common Ground", "address": "200, Achasan-ro, Gwangjin-gu, Seoul", "location": { "type": "Point", "coordinates": [127.0635, 37.5437] }, "categoryTags": ["Kculture", "Shopping"], "openingHours": "11:00 - 22:00", "entryFee": "Free", "needsReservation": false },
    { "_id": { "$oid": "poi_071" }, "name": "Lotte World Adventure", "address": "240, Olympic-ro, Songpa-gu, Seoul", "location": { "type": "Point", "coordinates": [127.0985, 37.5113] }, "categoryTags": ["Kpop", "Kfood"], "openingHours": "09:30 - 22:00", "entryFee": "62,000 KRW", "needsReservation": false },
    { "_id": { "$oid": "poi_072" }, "name": "Seoul Land", "address": "181, Gwangmyeong-ro, Gwacheon-si, Gyeonggi-do", "location": { "type": "Point", "coordinates": [126.9886, 37.4353] }, "categoryTags": ["Kfestival", "Kfood"], "openingHours": "09:30 - 18:00", "entryFee": "40,000 KRW", "needsReservation": false },
    { "_id": { "$oid": "poi_073" }, "name": "Everland", "address": "199, Everland-ro, Pogok-eup, Cheoin-gu, Yongin-si, Gyeonggi-do", "location": { "type": "Point", "coordinates": [127.2162, 37.2944] }, "categoryTags": ["Kfestival", "Kfood"], "openingHours": "10:00 - 22:00", "entryFee": "64,000 KRW", "needsReservation": false },
    { "_id": { "$oid": "poi_074" }, "name": "Korean Folk Village", "address": "90, Minsokchon-ro, Giheung-gu, Yongin-si, Gyeonggi-do", "location": { "type": "Point", "coordinates": [127.1210, 37.2582] }, "categoryTags": ["Kculture", "Kfood"], "openingHours": "09:30 - 18:00", "entryFee": "22,000 KRW", "needsReservation": false },
    { "_id": { "$oid": "poi_075" }, "name": "Suwon Hwaseong Fortress", "address": "910, Jeongjo-ro, Paldal-gu, Suwon-si, Gyeonggi-do", "location": { "type": "Point", "coordinates": [127.0129, 37.2863] }, "categoryTags": ["Kculture", "Kfestival"], "openingHours": "09:00 - 18:00", "entryFee": "1,000 KRW", "needsReservation": false },
    { "_id": { "$oid": "poi_076" }, "name": "DMZ Tour Area", "address": "Munsan-eup, Paju-si, Gyeonggi-do", "location": { "type": "Point", "coordinates": [126.7829, 37.8964] }, "categoryTags": ["Kculture"], "openingHours": "09:00 - 17:00", "entryFee": "Varies", "needsReservation": true },
    { "_id": { "$oid": "poi_077" }, "name": "Heyri Art Valley", "address": "1652-294, Heyrimaeul-gil, Tanhyeon-myeon, Paju-si, Gyeonggi-do", "location": { "type": "Point", "coordinates": [126.8366, 37.8012] }, "categoryTags": ["Kculture", "Kfood"], "openingHours": "10:00 - 19:00", "entryFee": "Varies", "needsReservation": false },
    { "_id": { "$oid": "poi_078" }, "name": "Petite France", "address": "1063, Hoban-ro, Cheongpyeong-myeon, Gapyeong-gun, Gyeonggi-do", "location": { "type": "Point", "coordinates": [127.5199, 37.7181] }, "categoryTags": ["Kculture", "Kfestival"], "openingHours": "09:00 - 18:00", "entryFee": "10,000 KRW", "needsReservation": false },
    { "_id": { "$oid": "poi_079" }, "name": "Nami Island", "address": "1, Namiseom-gil, Namsan-myeon, Chuncheon-si, Gangwon-do", "location": { "type": "Point", "coordinates": [127.5360, 37.7916] }, "categoryTags": ["Kculture", "Kfestival"], "openingHours": "07:30 - 21:40", "entryFee": "16,000 KRW", "needsReservation": false },
    { "_id": { "$oid": "poi_080" }, "name": "Gangchon Rail Bike", "address": "1385, Gimyujeong-ro, Sindong-myeon, Chuncheon-si, Gangwon-do", "location": { "type": "Point", "coordinates": [127.7148, 37.8672] }, "categoryTags": ["Kculture", "Kfestival"], "openingHours": "09:00 - 18:00", "entryFee": "25,000 KRW", "needsReservation": true },
    { "_id": { "$oid": "poi_081" }, "name": "Alpensia Resort", "address": "325, Solbong-ro, Daegwallyeong-myeon, Pyeongchang-gun, Gangwon-do", "location": { "type": "Point", "coordinates": [128.6614, 37.6601] }, "categoryTags": ["Kfestival", "Kfood"], "openingHours": "09:00 - 18:00", "entryFee": "Varies", "needsReservation": false },
    { "_id": { "$oid": "poi_082" }, "name": "Jeju Olle Trail", "address": "Various locations, Jeju Island", "location": { "type": "Point", "coordinates": [126.5312, 33.4996] }, "categoryTags": ["Kculture"], "openingHours": "24h", "entryFee": "Free", "needsReservation": false },
    { "_id": { "$oid": "poi_083" }, "name": "Hallasan Mountain", "address": "Jeju Island", "location": { "type": "Point", "coordinates": [126.5330, 33.3620] }, "categoryTags": ["Kculture"], "openingHours": "05:00 - 14:00", "entryFee": "Free", "needsReservation": false },
    { "_id": { "$oid": "poi_084" }, "name": "Seongsan Ilchulbong", "address": "284-12, Ilchul-ro, Seongsan-eup, Seogwipo-si, Jeju-do", "location": { "type": "Point", "coordinates": [126.9429, 33.4583] }, "categoryTags": ["Kculture"], "openingHours": "07:00 - 20:00", "entryFee": "5,000 KRW", "needsReservation": false },
    { "_id": { "$oid": "poi_085" }, "name": "Jeju Loveland", "address": "2894-72, 1100-ro, Jeju-si, Jeju-do", "location": { "type": "Point", "coordinates": [126.4945, 33.5027] }, "categoryTags": ["Kculture"], "openingHours": "09:00 - 24:00", "entryFee": "12,000 KRW", "needsReservation": false },
    { "_id": { "$oid": "poi_086" }, "name": "Manjanggul Cave", "address": "182, Manjanggul-gil, Gujwa-eup, Jeju-si, Jeju-do", "location": { "type": "Point", "coordinates": [126.7928, 33.5289] }, "categoryTags": ["Kculture"], "openingHours": "09:00 - 18:00", "entryFee": "4,000 KRW", "needsReservation": false },
    { "_id": { "$oid": "poi_087" }, "name": "Jeju Folk Village", "address": "40, Seong-eup 1-gil, Pyoseon-myeon, Seogwipo-si, Jeju-do", "location": { "type": "Point", "coordinates": [126.7981, 33.3168] }, "categoryTags": ["Kculture", "Kfood"], "openingHours": "08:30 - 18:00", "entryFee": "11,000 KRW", "needsReservation": false },
    { "_id": { "$oid": "poi_088" }, "name": "Jungmun Beach", "address": "Jungmun-dong, Seogwipo-si, Jeju-do", "location": { "type": "Point", "coordinates": [126.4236, 33.2398] }, "categoryTags": ["Kculture", "Kfestival"], "openingHours": "24h", "entryFee": "Free", "needsReservation": false },
    { "_id": { "$oid": "poi_089" }, "name": "Yongduam Rock", "address": "Yongdam 2-dong, Jeju-si, Jeju-do", "location": { "type": "Point", "coordinates": [126.5106, 33.5114] }, "categoryTags": ["Kculture"], "openingHours": "24h", "entryFee": "Free", "needsReservation": false },
    { "_id": { "$oid": "poi_090" }, "name": "Udo Island", "address": "Udo-myeon, Jeju-si, Jeju-do", "location": { "type": "Point", "coordinates": [126.9527, 33.5064] }, "categoryTags": ["Kculture", "Kfood"], "openingHours": "08:00 - 18:00", "entryFee": "Ferry fee", "needsReservation": false },
    { "_id": { "$oid": "poi_091" }, "name": "Gyeongju Historic Area", "address": "Gyeongju-si, Gyeongsangbuk-do", "location": { "type": "Point", "coordinates": [129.2265, 35.8428] }, "categoryTags": ["Kculture", "Kfestival"], "openingHours": "09:00 - 18:00", "entryFee": "Varies", "needsReservation": false },
    { "_id": { "$oid": "poi_092" }, "name": "Bulguksa Temple", "address": "385, Bulguk-ro, Gyeongju-si, Gyeongsangbuk-do", "location": { "type": "Point", "coordinates": [129.3326, 35.7894] }, "categoryTags": ["Kculture", "Kfestival"], "openingHours": "07:00 - 18:00", "entryFee": "6,000 KRW", "needsReservation": false },
    { "_id": { "$oid": "poi_093" }, "name": "Seokguram Grotto", "address": "873-243, Bulguk-ro, Gyeongju-si, Gyeongsangbuk-do", "location": { "type": "Point", "coordinates": [129.3493, 35.7933] }, "categoryTags": ["Kculture"], "openingHours": "07:00 - 17:30", "entryFee": "6,000 KRW", "needsReservation": false },
    { "_id": { "$oid": "poi_094" }, "name": "Anapji Pond", "address": "102, Wonhwa-ro, Gyeongju-si, Gyeongsangbuk-do", "location": { "type": "Point", "coordinates": [129.2268, 35.8344] }, "categoryTags": ["Kculture", "Kfestival"], "openingHours": "09:00 - 22:00", "entryFee": "3,000 KRW", "needsReservation": false },
    { "_id": { "$oid": "poi_095" }, "name": "Daereungwon Tomb Complex", "address": "9, Gyerim-ro, Gyeongju-si, Gyeongsangbuk-do", "location": { "type": "Point", "coordinates": [129.2081, 35.8351] }, "categoryTags": ["Kculture"], "openingHours": "09:00 - 22:00", "entryFee": "3,000 KRW", "needsReservation": false },
    { "_id": { "$oid": "poi_096" }, "name": "Taejongdae Resort Park", "address": "24, Jeonmang-ro, Yeongdo-gu, Busan", "location": { "type": "Point", "coordinates": [129.0817, 35.0526] }, "categoryTags": ["Kculture"], "openingHours": "04:00 - 24:00", "entryFee": "Free", "needsReservation": false },
    { "_id": { "$oid": "poi_097" }, "name": "Oryukdo Skywalk", "address": "137, Oryukdo-ro, Nam-gu, Busan", "location": { "type": "Point", "coordinates": [129.1247, 35.0934] }, "categoryTags": ["Kculture"], "openingHours": "09:00 - 18:00", "entryFee": "Free", "needsReservation": false },
    { "_id": { "$oid": "poi_098" }, "name": "Busan Tower", "address": "37-55, Yongdusan-gil, Jung-gu, Busan", "location": { "type": "Point", "coordinates": [129.0323, 35.1019] }, "categoryTags": ["Kculture", "Kfood"], "openingHours": "09:00 - 22:00", "entryFee": "8,000 KRW", "needsReservation": false },
    { "_id": { "$oid": "poi_099" }, "name": "Songdo Skywalk", "address": "171, Amnam-dong, Seo-gu, Busan", "location": { "type": "Point", "coordinates": [129.0182, 35.0738] }, "categoryTags": ["Kculture"], "openingHours": "09:00 - 18:00", "entryFee": "Free", "needsReservation": false },
    { "_id": { "$oid": "poi_100" }, "name": "Huinnyeoul Culture Village", "address": "1046-6, Yeongseon-dong 4-ga, Nam-gu, Busan", "location": { "type": "Point", "coordinates": [129.0358, 35.0797] }, "categoryTags": ["Kculture", "Kfood"], "openingHours": "24h", "entryFee": "Free", "needsReservation": false }
]