[
    { "_id": { "$oid": "poi_001" }, "name": "COEX", "address": "513, Yeongdong-daero, Gangnam-gu, Seoul", "location": { "type": "Point", "coordinates": [127.0589, 37.5113] }, "categoryTags": ["Kpop", "Kfood", "Shopping"], "openingHours": "10:30 - 22:00", "entryFee": "Free", "needsReservation": false },
    { "_id": { "$oid": "poi_002" }, "name": "Myeongdong Street", "address": "Myeong-dong, Jung-gu, Seoul", "location": { "type": "Point", "coordinates": [126.9858, 37.5594] }, "categoryTags": ["Kbeauty", "Kfood"], "openingHours": "11:00 - 23:00", "entryFee": "Free", "needsReservation": false },
    { "_id": { "$oid": "poi_003" }, "name": "HYBE Insight", "address": "42, Hangang-daero, Yongsan-gu, Seoul", "location": { "type": "Point", "coordinates": [126.9672, 37.5234] }, "categoryTags": ["Kpop"], "openingHours": "11:00 - 19:00", "entryFee": "22,000 KRW", "needsReservation": true },
    { "_id": { "$oid": "poi_004" }, "name": "Gwangjang Market", "address": "88, Changgyeonggung-ro, Jongno-gu, Seoul", "location": { "type": "Point", "coordinates": [127.0016, 37.5701] }, "categoryTags": ["Kfood"], "openingHours": "09:00 - 22:00", "entryFee": "Free", "needsReservation": false },
    { "_id": { "$oid": "poi_005" }, "name": "Olive Young Flagship", "address": "53, Myeongdong-gil, Jung-gu, Seoul", "location": { "type": "Point", "coordinates": [126.9850, 37.5645] }, "categoryTags": ["Kbeauty"], "openingHours": "10:00 - 22:30", "entryFee": "Free", "needsReservation": false },
    { "_id": { "$oid": "poi_006" }, "name": "Lotte World Tower", "address": "300, Olympic-ro, Songpa-gu, Seoul", "location": { "type": "Point", "coordinates": [127.1025, 37.5125] }, "categoryTags": ["Kpop", "Kfood"], "openingHours": "10:30 - 22:00", "entryFee": "27,000 KRW", "needsReservation": false },
    { "_id": { "$oid": "poi_007" }, "name": "Bukchon Hanok Village", "address": "Gye-dong, Jongno-gu, Seoul", "location": { "type": "Point", "coordinates": [126.9848, 37.5829] }, "categoryTags": ["Kculture", "Kfood"], "openingHours": "10:00 - 17:00", "entryFee": "Free", "needsReservation": false },
    { "_id": { "$oid": "poi_008" }, "name": "Banpo Hangang Park", "address": "40, Sinbanpo-ro 11-gil, Seocho-gu, Seoul", "location": { "type": "Point", "coordinates": [127.0010, 37.5100] }, "categoryTags": ["Kfood", "Kfestival"], "openingHours": "24h", "entryFee": "Free", "needsReservation": false },
    { "_id": { "$oid": "poi_009" }, "name": "DDP (Dongdaemun)", "address": "281, Eulji-ro, Jung-gu, Seoul", "location": { "type": "Point", "coordinates": [127.0098, 37.5665] }, "categoryTags": ["Kbeauty", "Kfestival"], "openingHours": "10:00 - 21:00", "entryFee": "Free", "needsReservation": false },
    { "_id": { "$oid": "poi_010" }, "name": "KWANGYA@SEOUL", "address": "83-21, Wangsimni-ro, Seongdong-gu, Seoul", "location": { "type": "Point", "coordinates": [127.0440, 37.5443] }, "categoryTags": ["Kpop"], "openingHours": "10:30 - 20:00", "entryFee": "Free", "needsReservation": false },
    { "_id": { "$oid": "poi_011" }, "name": "Seongsu-dong Cafe Street", "address": "Seongsu-dong, Seongdong-gu, Seoul", "location": { "type": "Point", "coordinates": [127.0557, 37.5445] }, "categoryTags": ["Kbeauty", "Kfood"], "openingHours": "11:00 - 22:00", "entryFee": "Free", "needsReservation": false },
    { "_id": { "$oid": "poi_012" }, "name": "Hongdae Walking Street", "address": "Eoulmadang-ro, Mapo-gu, Seoul", "location": { "type": "Point", "coordinates": [126.9213, 37.5552] }, "categoryTags": ["Kpop", "Kfood"], "openingHours": "24h", "entryFee": "Free", "needsReservation": false },
    { "_id": { "$oid": "poi_013" }, "name": "Gyeongbokgung Palace", "address": "161, Sajik-ro, Jongno-gu, Seoul", "location": { "type": "Point", "coordinates": [126.9768, 37.5796] }, "categoryTags": ["Kculture", "Kfestival"], "openingHours": "09:00 - 18:00", "entryFee": "3,000 KRW", "needsReservation": false },
    { "_id": { "$oid": "poi_014" }, "name": "Hannam-dong Art District", "address": "Hannam-dong, Yongsan-gu, Seoul", "location": { "type": "Point", "coordinates": [127.0021, 37.5365] }, "categoryTags": ["Kbeauty", "Kfood"], "openingHours": "11:00 - 21:00", "entryFee": "Free", "needsReservation": false },
    { "_id": { "$oid": "poi_015" }, "name": "Olympic Park", "address": "424, Olympic-ro, Songpa-gu, Seoul", "location": { "type": "Point", "coordinates": [127.1251, 37.5208] }, "categoryTags": ["Kpop", "Kfestival"], "openingHours": "05:00 - 22:00", "entryFee": "Free", "needsReservation": false },
    { "_id": { "$oid": "poi_016" }, "name": "Insa-dong Culture Street", "address": "Insa-dong, Jongno-gu, Seoul", "location": { "type": "Point", "coordinates": [126.9865, 37.5732] }, "categoryTags": ["Kculture", "Kfood"], "openingHours": "10:00 - 21:00", "entryFee": "Free", "needsReservation": false },
    { "_id": { "$oid": "poi_017" }, "name": "Starfield Library", "address": "513, Yeongdong-daero, Gangnam-gu, Seoul", "location": { "type": "Point", "coordinates": [127.0595, 37.5126] }, "categoryTags": ["Kculture", "Kpop"], "openingHours": "10:30 - 22:00", "entryFee": "Free", "needsReservation": false },
    { "_id": { "$oid": "poi_018" }, "name": "Blue House (Cheong Wa Dae)", "address": "1, Cheongwadae-ro, Jongno-gu, Seoul", "location": { "type": "Point", "coordinates": [126.9748, 37.5866] }, "categoryTags": ["Kculture"], "openingHours": "09:00 - 18:00", "entryFee": "Free", "needsReservation": true },
    { "_id": { "$oid": "poi_019" }, "name": "Namsan Seoul Tower", "address": "105, Namsangongwon-gil, Yongsan-gu, Seoul", "location": { "type": "Point", "coordinates": [126.9882, 37.5512] }, "categoryTags": ["Kculture", "Kfood"], "openingHours": "10:00 - 23:00", "entryFee": "21,000 KRW", "needsReservation": false },
    { "_id": { "$oid": "poi_020" }, "name": "Yeouido Hangang Park", "address": "330, Yeouidong-ro, Yeongdeungpo-gu, Seoul", "location": { "type": "Point", "coordinates": [126.9347, 37.5284] }, "categoryTags": ["Kfestival", "Kfood"], "openingHours": "24h", "entryFee": "Free", "needsReservation": false },
    { "_id": { "$oid": "poi_021" }, "name": "AmorePacific Headquarters", "address": "100, Hangang-daero, Yongsan-gu, Seoul", "location": { "type": "Point", "coordinates": [126.9685, 37.5281] }, "categoryTags": ["Kbeauty"], "openingHours": "10:00 - 18:00", "entryFee": "Free", "needsReservation": false },
    { "_id": { "$oid": "poi_022" }, "name": "JYP Entertainment", "address": "205, Gangdong-daero, Gangdong-gu, Seoul", "location": { "type": "Point", "coordinates": [127.1351, 37.5221] }, "categoryTags": ["Kpop"], "openingHours": "Exterior only", "entryFee": "Free", "needsReservation": false },
    { "_id": { "$oid": "poi_023" }, "name": "YG Entertainment", "address": "3, Huiujeong-ro 1-gil, Mapo-gu, Seoul", "location": { "type": "Point", "coordinates": [126.9137, 37.5482] }, "categoryTags": ["Kpop"], "openingHours": "Exterior only", "entryFee": "Free", "needsReservation": false },
    { "_id": { "$oid": "poi_024" }, "name": "Tamburins Flagship Store", "address": "44, Apgujeong-ro 10-gil, Gangnam-gu, Seoul", "location": { "type": "Point", "coordinates": [127.0234, 37.5218] }, "categoryTags": ["Kbeauty"], "openingHours": "11:00 - 21:00", "entryFee": "Free", "needsReservation": false },
    { "_id": { "$oid": "poi_025" }, "name": "Gyeongui Line Forest Park", "address": "Mapo-gu, Seoul", "location": { "type": "Point", "coordinates": [126.9365, 37.5574] }, "categoryTags": ["Kfood", "Kculture"], "openingHours": "24h", "entryFee": "Free", "needsReservation": false },
    { "_id": { "$oid": "poi_026" }, "name": "Seoul Forest", "address": "273, Ttukseom-ro, Seongdong-gu, Seoul", "location": { "type": "Point", "coordinates": [127.0418, 37.5444] }, "categoryTags": ["Kculture", "Kpop"], "openingHours": "24h", "entryFee": "Free", "needsReservation": false },
    { "_id": { "$oid": "poi_027" }, "name": "Ttukseom Hangang Park", "address": "139, Gangbyeonbuk-ro, Gwangjin-gu, Seoul", "location": { "type": "Point", "coordinates": [127.0664, 37.5287] }, "categoryTags": ["Kfestival", "Kfood"], "openingHours": "24h", "entryFee": "Free", "needsReservation": false },
    { "_id": { "$oid": "poi_028" }, "name": "Ikseon-dong Hanok Street", "address": "Ikseon-dong, Jongno-gu, Seoul", "location": { "type": "Point", "coordinates": [126.9891, 37.5744] }, "categoryTags": ["Kfood", "Kculture"], "openingHours": "11:00 - 22:00", "entryFee": "Free", "needsReservation": false },
    { "_id": { "$oid": "poi_029" }, "name": "Sinsa-dong Garosu-gil", "address": "Sinsa-dong, Gangnam-gu, Seoul", "location": { "type": "Point", "coordinates": [127.0232, 37.5203] }, "categoryTags": ["Kbeauty", "Kfood"], "openingHours": "10:30 - 22:00", "entryFee": "Free", "needsReservation": false },
    { "_id": { "$oid": "poi_030" }, "name": "Namdaemun Market", "address": "21, Namdaemunsichang-gil, Jung-gu, Seoul", "location": { "type": "Point", "coordinates": [126.9772, 37.5592] }, "categoryTags": ["Kfood", "Shopping"], "openingHours": "09:00 - 18:00", "entryFee": "Free", "needsReservation": false }
]